[
  {
    "id": "chongqing-house",
    "name": "Chongqing House",
    "name_zh": "重庆山庄",
    "address": "62 Washington St, Providence, RI 02903",
    "lat": 41.8227,
    "lng": -71.4133,
    "cuisine_tags": ["川菜", "火锅", "麻辣"],
    "review_summary": "Authentic Sichuan flavors with generous portions. The mapo tofu and spicy boiled fish are standouts.",
    "review_score": 4.4,
    "yelp_url": "https://www.yelp.com/biz/chongqing-house-providence"
  },
  {
    "id": "chengdu-taste",
    "name": "Chengdu Taste",
    "name_zh": "成都味道",
    "address": "220 Wickenden St, Providence, RI 02903",
    "lat": 41.8192,
    "lng": -71.3948,
    "cuisine_tags": ["川菜", "麻辣"],
    "review_summary": "Classic Chengdu-style dishes done right. Dan dan noodles and twice-cooked pork are fan favorites.",
    "review_score": 4.3,
    "yelp_url": "https://www.yelp.com/biz/chengdu-taste-providence"
  },
  {
    "id": "rong-chic",
    "name": "Rong Chic",
    "name_zh": "荣记",
    "address": "108 Fountain St, Providence, RI 02903",
    "lat": 41.8231,
    "lng": -71.4158,
    "cuisine_tags": ["川菜", "面食", "家常菜"],
    "review_summary": "A no-frills spot beloved by Chinese students for its affordable home-style dishes and hearty noodle soups.",
    "review_score": 4.2,
    "yelp_url": "https://www.yelp.com/biz/rong-chic-providence"
  },
  {
    "id": "jahunger",
    "name": "Jahunger",
    "name_zh": "",
    "address": "364 Westminster St, Providence, RI 02903",
    "lat": 41.8214,
    "lng": -71.4173,
    "cuisine_tags": ["新疆菜", "清真", "烧烤"],
    "review_summary": "Providence's only Uyghur restaurant. The lamb skewers, big plate chicken, and hand-pulled noodles are unlike anything else in the city.",
    "review_score": 4.6,
    "yelp_url": "https://www.yelp.com/biz/jahunger-providence"
  },
  {
    "id": "chef-yao",
    "name": "Chef Yao",
    "name_zh": "蜀湘居",
    "address": "172 Atwells Ave, Providence, RI 02903",
    "lat": 41.8224,
    "lng": -71.4317,
    "cuisine_tags": ["粤菜", "家常菜", "点心"],
    "review_summary": "Dependable Cantonese classics with a friendly atmosphere. Great for a full sit-down meal with roast meats and stir-fries.",
    "review_score": 4.1,
    "yelp_url": "https://www.yelp.com/biz/chef-yao-providence"
  },
  {
    "id": "mala-noodle",
    "name": "Mala Noodle",
    "name_zh": "",
    "address": "287 Thayer St, Providence, RI 02906",
    "lat": 41.8271,
    "lng": -71.3998,
    "cuisine_tags": ["川菜", "面食", "麻辣"],
    "review_summary": "Excellent spicy noodle soups popular with the Brown and RISD crowd. The mala broth is addictive.",
    "review_score": 4.5,
    "yelp_url": "https://www.yelp.com/biz/mala-noodle-providence"
  },
  {
    "id": "12-dumplings",
    "name": "12 Dumplings",
    "name_zh": "十二饺子",
    "address": "241 Thayer St, Providence, RI 02906",
    "lat": 41.8268,
    "lng": -71.4003,
    "cuisine_tags": ["饺子", "点心", "面食"],
    "review_summary": "Handmade dumplings with a variety of fillings — pork and cabbage are the classic, but the shrimp and chive are excellent too.",
    "review_score": 4.4,
    "yelp_url": "https://www.yelp.com/biz/12-dumplings-providence"
  },
  {
    "id": "y-bento",
    "name": "Y Bento",
    "name_zh": "",
    "address": "255 Thayer St, Providence, RI 02906",
    "lat": 41.8270,
    "lng": -71.4001,
    "cuisine_tags": ["日式", "便当", "亚洲融合"],
    "review_summary": "Quick, affordable Japanese-style bento boxes with generous rice and protein combinations. Great for a fast lunch.",
    "review_score": 4.0,
    "yelp_url": "https://www.yelp.com/biz/y-bento-providence"
  },
  {
    "id": "y-noodle-bar",
    "name": "Y Noodle Bar",
    "name_zh": "",
    "address": "253 Thayer St, Providence, RI 02906",
    "lat": 41.8269,
    "lng": -71.4002,
    "cuisine_tags": ["面食", "亚洲融合", "汤面"],
    "review_summary": "A casual noodle bar with broth-based soups and dry noodle options. Customizable spice levels and toppings.",
    "review_score": 4.1,
    "yelp_url": "https://www.yelp.com/biz/y-noodle-bar-providence"
  },
  {
    "id": "lamei-hotpot",
    "name": "Lamei Hotpot",
    "name_zh": "辣妹火锅",
    "address": "93 Eddy St, Providence, RI 02903",
    "lat": 41.8198,
    "lng": -71.4090,
    "cuisine_tags": ["火锅", "川菜", "麻辣"],
    "review_summary": "Providence's best hotpot experience with quality fresh ingredients and rich broth options. Come hungry and with friends.",
    "review_score": 4.5,
    "yelp_url": "https://www.yelp.com/biz/lamei-hotpot-providence"
  },
  {
    "id": "pho-horn",
    "name": "Pho Horn",
    "name_zh": "",
    "address": "50 Rolfe St, Cranston, RI 02910",
    "lat": 41.7868,
    "lng": -71.4378,
    "cuisine_tags": ["越南菜", "河粉", "汤面"],
    "review_summary": "Exceptional pho and Vietnamese staples just outside Providence. The bone broth is simmered for hours and it shows.",
    "review_score": 4.6,
    "yelp_url": "https://www.yelp.com/biz/pho-horn-cranston"
  },
  {
    "id": "champa",
    "name": "Champa",
    "name_zh": "",
    "address": "168 Atwells Ave, Providence, RI 02903",
    "lat": 41.8223,
    "lng": -71.4316,
    "cuisine_tags": ["东南亚", "老挝菜", "泰国菜"],
    "review_summary": "Flavorful Southeast Asian dishes with a focus on Lao cuisine. The papaya salad and larb are fresh and vibrant.",
    "review_score": 4.3,
    "yelp_url": "https://www.yelp.com/biz/champa-providence"
  },
  {
    "id": "lobanton",
    "name": "Lobanton",
    "name_zh": "",
    "address": "314 Wickenden St, Providence, RI 02903",
    "lat": 41.8188,
    "lng": -71.3916,
    "cuisine_tags": ["粤菜", "家常菜", "炒菜"],
    "review_summary": "A neighborhood Chinese restaurant with solid Cantonese stir-fries and rice plates. Relaxed vibe and reliable quality.",
    "review_score": 4.0,
    "yelp_url": "https://www.yelp.com/biz/lobanton-providence"
  },
  {
    "id": "wongs-kitchen",
    "name": "Wong's Kitchen",
    "name_zh": "",
    "address": "1011 Park Ave, Cranston, RI 02910",
    "lat": 41.7921,
    "lng": -71.4501,
    "cuisine_tags": ["粤菜", "家常菜", "点心"],
    "review_summary": "Family-run Cantonese kitchen with a loyal local following. Roast duck and dim sum items are a must-order.",
    "review_score": 4.2,
    "yelp_url": "https://www.yelp.com/biz/wongs-kitchen-cranston"
  }
]
